[
  {
    "teamId": "air-force",
    "teamName": "Air Force",
    "shortName": "Air Force",
    "latitude": 38.9967,
    "longitude": -104.8618,
    "centroidLatitude": 38.9967,
    "centroidLongitude": -104.8618,
    "areaSqMi": 0.0,
    "countyCount": 0,
    "logoUrl": "https://a.espncdn.com/combiner/i?img=/i/teamlogos/ncaa/500/2005.png",
    "anchorFips": null,
    "region": null,
    "totalAreaSqMi": 0.0
  },
  {
    "teamId": "akron",
    "teamName": "Akron",
    "shortName": "Akron",
    "latitude": 41.0732,
    "longitude": -81.5179,
    "centroidLatitude": 41.0732,
    "centroidLongitude": -81.5179,
    "areaSqMi": 0.0,
    "countyCount": 0,
    "logoUrl": "https://a.espncdn.com/combiner/i?img=/i/teamlogos/ncaa/500/2006.png",
    "anchorFips": null,
    "region": null,
    "totalAreaSqMi": 0.0
  },
  {
    "teamId": "alabama",
    "teamName": "Alabama",
    "shortName": "Alabama",
    "latitude": 42.67463745713085,
    "longitude": -88.57976779918886,
    "centroidLatitude": 42.09477229957458,
    "centroidLongitude": -88.2120804560428,
    "areaSqMi": 55907.195000000014,
    "countyCount": 94,
    "logoUrl": "https://a.espncdn.com/combiner/i?img=/i/teamlogos/ncaa/500/333.png",
    "anchorFips": "55127",
    "region": "mainland",
    "totalAreaSqMi": 55907.195000000014
  },
  {
    "teamId": "appalachian-state",
    "teamName": "Appalachian State",
    "shortName": "Appalachian State",
    "latitude": 36.24500440556721,
    "longitude": -82.11281274092721,
    "centroidLatitude": 36.323633347016106,
    "centroidLongitude": -82.03630271910266,
    "areaSqMi": 12104.955000000002,
    "countyCount": 31,
    "logoUrl": "https://a.espncdn.com/combiner/i?img=/i/teamlogos/ncaa/500/2026.png",
    "anchorFips": "47019",
    "region": "mainland",
    "totalAreaSqMi": 12104.955000000002
  },
  {
    "teamId": "arizona",
    "teamName": "Arizona",
    "shortName": "Arizona",
    "latitude": 33.027988291540495,
    "longitude": -109.98994137017272,
    "centroidLatitude": 32.285416921635004,
    "centroidLongitude": -110.39716047437868,
    "areaSqMi": 23055.364999999998,
    "countyCount": 5,
    "logoUrl": "https://a.espncdn.com/combiner/i?img=/i/teamlogos/ncaa/500/12.png",
    "anchorFips": "04009",
    "region": "mainland",
    "totalAreaSqMi": 23055.364999999998
  },
  {
    "teamId": "arizona-state",
    "teamName": "Arizona State",
    "shortName": "Arizona State",
    "latitude": 29.858044526296275,
    "longitude": -97.61112584552211,
    "centroidLatitude": 34.251935745620514,
    "centroidLongitude": -92.76946740355334,
    "areaSqMi": 11922.296999999999,
    "countyCount": 16,
    "logoUrl": "https://a.espncdn.com/combiner/i?img=/i/teamlogos/ncaa/500/9.png",
    "anchorFips": "48055",
    "region": "mainland",
    "totalAreaSqMi": 11922.296999999999
  },
  {
    "teamId": "arkansas",
    "teamName": "Arkansas",
    "shortName": "Arkansas",
    "latitude": 36.0625,
    "longitude": -94.1574,
    "centroidLatitude": 36.0625,
    "centroidLongitude": -94.1574,
    "areaSqMi": 0.0,
    "countyCount": 0,
    "logoUrl": "https://a.espncdn.com/combiner/i?img=/i/teamlogos/ncaa/500/8.png",
    "anchorFips": null,
    "region": null,
    "totalAreaSqMi": 0.0
  },
  {
    "teamId": "arkansas-state",
    "teamName": "Arkansas State",
    "shortName": "Arkansas State",
    "latitude": 35.8423,
    "longitude": -90.6843,
    "centroidLatitude": 35.8423,
    "centroidLongitude": -90.6843,
    "areaSqMi": 0.0,
    "countyCount": 0,
    "logoUrl": "https://a.espncdn.com/combiner/i?img=/i/teamlogos/ncaa/500/2032.png",
    "anchorFips": null,
    "region": null,
    "totalAreaSqMi": 0.0
  },
  {
    "teamId": "army",
    "teamName": "Army",
    "shortName": "Army",
    "latitude": 41.830274048510766,
    "longitude": -74.12033099349753,
    "centroidLatitude": 41.63445160358008,
    "centroidLongitude": -74.16116117980823,
    "areaSqMi": 10517.17,
    "countyCount": 19,
    "logoUrl": "https://a.espncdn.com/combiner/i?img=/i/teamlogos/ncaa/500/349.png",
    "anchorFips": "36111",
    "region": "mainland",
    "totalAreaSqMi": 10517.17
  },
  {
    "teamId": "auburn",
    "teamName": "Auburn",
    "shortName": "Auburn",
    "latitude": 31.81330296055555,
    "longitude": -96.05308928527,
    "centroidLatitude": 32.12727299574915,
    "centroidLongitude": -92.69978853765667,
    "areaSqMi": 22080.098,
    "countyCount": 34,
    "logoUrl": "https://a.espncdn.com/combiner/i?img=/i/teamlogos/ncaa/500/2.png",
    "anchorFips": "48161",
    "region": "mainland",
    "totalAreaSqMi": 22080.098
  },
  {
    "teamId": "byu",
    "teamName": "BYU",
    "shortName": "BYU",
    "latitude": 39.04559632602156,
    "longitude": -112.71184544554737,
    "centroidLatitude": 39.05993853118225,
    "centroidLongitude": -113.57722985684401,
    "areaSqMi": 75862.84599999999,
    "countyCount": 31,
    "logoUrl": "https://a.espncdn.com/combiner/i?img=/i/teamlogos/ncaa/500/252.png",
    "anchorFips": "49027",
    "region": "mainland",
    "totalAreaSqMi": 75862.84599999999
  },
  {
    "teamId": "ball-state",
    "teamName": "Ball State",
    "shortName": "Ball State",
    "latitude": 40.2006,
    "longitude": -85.4106,
    "centroidLatitude": 40.2006,
    "centroidLongitude": -85.4106,
    "areaSqMi": 0.0,
    "countyCount": 0,
    "logoUrl": "https://a.espncdn.com/combiner/i?img=/i/teamlogos/ncaa/500/2050.png",
    "anchorFips": null,
    "region": null,
    "totalAreaSqMi": 0.0
  },
  {
    "teamId": "baylor",
    "teamName": "Baylor",
    "shortName": "Baylor",
    "latitude": 33.15129658966153,
    "longitude": -95.63644185779812,
    "centroidLatitude": 33.0919919096065,
    "centroidLongitude": -95.62300701059142,
    "areaSqMi": 15491.124,
    "countyCount": 23,
    "logoUrl": "https://a.espncdn.com/combiner/i?img=/i/teamlogos/ncaa/500/239.png",
    "anchorFips": "48223",
    "region": "mainland",
    "totalAreaSqMi": 15491.124
  },
  {
    "teamId": "boise-state",
    "teamName": "Boise State",
    "shortName": "Boise State",
    "latitude": 43.6028,
    "longitude": -116.2146,
    "centroidLatitude": 43.6028,
    "centroidLongitude": -116.2146,
    "areaSqMi": 0.0,
    "countyCount": 0,
    "logoUrl": "https://a.espncdn.com/combiner/i?img=/i/teamlogos/ncaa/500/68.png",
    "anchorFips": null,
    "region": null,
    "totalAreaSqMi": 0.0
  },
  {
    "teamId": "boston-college",
    "teamName": "Boston College",
    "shortName": "Boston College",
    "latitude": 42.3355,
    "longitude": -71.1685,
    "centroidLatitude": 42.3355,
    "centroidLongitude": -71.1685,
    "areaSqMi": 0.0,
    "countyCount": 0,
    "logoUrl": "https://a.espncdn.com/combiner/i?img=/i/teamlogos/ncaa/500/103.png",
    "anchorFips": null,
    "region": null,
    "totalAreaSqMi": 0.0
  },
  {
    "teamId": "bowling-green",
    "teamName": "Bowling Green",
    "shortName": "Bowling Green",
    "latitude": 41.3748,
    "longitude": -83.6571,
    "centroidLatitude": 41.3748,
    "centroidLongitude": -83.6571,
    "areaSqMi": 0.0,
    "countyCount": 0,
    "logoUrl": "https://a.espncdn.com/combiner/i?img=/i/teamlogos/ncaa/500/189.png",
    "anchorFips": null,
    "region": null,
    "totalAreaSqMi": 0.0
  },
  {
    "teamId": "buffalo",
    "teamName": "Buffalo",
    "shortName": "Buffalo",
    "latitude": 43.0002,
    "longitude": -78.789,
    "centroidLatitude": 43.0002,
    "centroidLongitude": -78.789,
    "areaSqMi": 0.0,
    "countyCount": 0,
    "logoUrl": "https://a.espncdn.com/combiner/i?img=/i/teamlogos/ncaa/500/2084.png",
    "anchorFips": null,
    "region": null,
    "totalAreaSqMi": 0.0
  },
  {
    "teamId": "central-michigan",
    "teamName": "Central Michigan",
    "shortName": "Central Michigan",
    "latitude": 43.5776,
    "longitude": -84.7732,
    "centroidLatitude": 43.5776,
    "centroidLongitude": -84.7732,
    "areaSqMi": 0.0,
    "countyCount": 0,
    "logoUrl": "https://a.espncdn.com/combiner/i?img=/i/teamlogos/ncaa/500/2117.png",
    "anchorFips": null,
    "region": null,
    "totalAreaSqMi": 0.0
  },
  {
    "teamId": "charlotte",
    "teamName": "Charlotte",
    "shortName": "Charlotte",
    "latitude": 35.3073,
    "longitude": -80.7342,
    "centroidLatitude": 35.3073,
    "centroidLongitude": -80.7342,
    "areaSqMi": 0.0,
    "countyCount": 0,
    "logoUrl": "https://a.espncdn.com/combiner/i?img=/i/teamlogos/ncaa/500/2429.png",
    "anchorFips": null,
    "region": null,
    "totalAreaSqMi": 0.0
  },
  {
    "teamId": "cincinnati",
    "teamName": "Cincinnati",
    "shortName": "Cincinnati",
    "latitude": 41.00759886486243,
    "longitude": -83.6315725735685,
    "centroidLatitude": 41.092741995597095,
    "centroidLongitude": -83.8055920605064,
    "areaSqMi": 7192.685,
    "countyCount": 16,
    "logoUrl": "https://a.espncdn.com/combiner/i?img=/i/teamlogos/ncaa/500/2132.png",
    "anchorFips": "39063",
    "region": "mainland",
    "totalAreaSqMi": 7192.685
  },
  {
    "teamId": "clemson",
    "teamName": "Clemson",
    "shortName": "Clemson",
    "latitude": 34.6767,
    "longitude": -82.836,
    "centroidLatitude": 34.6767,
    "centroidLongitude": -82.836,
    "areaSqMi": 0.0,
    "countyCount": 0,
    "logoUrl": "https://a.espncdn.com/combiner/i?img=/i/teamlogos/ncaa/500/228.png",
    "anchorFips": null,
    "region": null,
    "totalAreaSqMi": 0.0
  },
  {
    "teamId": "coastal-carolina",
    "teamName": "Coastal Carolina",
    "shortName": "Coastal Carolina",
    "latitude": 33.7948,
    "longitude": -79.0391,
    "centroidLatitude": 33.7948,
    "centroidLongitude": -79.0391,
    "areaSqMi": 0.0,
    "countyCount": 0,
    "logoUrl": "https://a.espncdn.com/combiner/i?img=/i/teamlogos/ncaa/500/324.png",
    "anchorFips": null,
    "region": null,
    "totalAreaSqMi": 0.0
  },
  {
    "teamId": "colorado",
    "teamName": "Colorado",
    "shortName": "Colorado",
    "latitude": 40.015,
    "longitude": -105.2705,
    "centroidLatitude": 40.015,
    "centroidLongitude": -105.2705,
    "areaSqMi": 0.0,
    "countyCount": 0,
    "logoUrl": "https://a.espncdn.com/combiner/i?img=/i/teamlogos/ncaa/500/38.png",
    "anchorFips": null,
    "region": null,
    "totalAreaSqMi": 0.0
  },
  {
    "teamId": "colorado-state",
    "teamName": "Colorado State",
    "shortName": "Colorado State",
    "latitude": 40.5508,
    "longitude": -105.0178,
    "centroidLatitude": 40.5508,
    "centroidLongitude": -105.0178,
    "areaSqMi": 0.0,
    "countyCount": 0,
    "logoUrl": "https://a.espncdn.com/combiner/i?img=/i/teamlogos/ncaa/500/36.png",
    "anchorFips": null,
    "region": null,
    "totalAreaSqMi": 0.0
  },
  {
    "teamId": "connecticut",
    "teamName": "Connecticut",
    "shortName": "Connecticut",
    "latitude": 41.406480516176615,
    "longitude": -72.53761436253538,
    "centroidLatitude": 41.485178000985975,
    "centroidLongitude": -72.34168252340683,
    "areaSqMi": 4809.106,
    "countyCount": 10,
    "logoUrl": "https://a.espncdn.com/combiner/i?img=/i/teamlogos/ncaa/500/41.png",
    "anchorFips": "09007",
    "region": "mainland",
    "totalAreaSqMi": 4809.106
  },
  {
    "teamId": "delaware",
    "teamName": "Delaware",
    "shortName": "Delaware",
    "latitude": 39.6837,
    "longitude": -75.7497,
    "centroidLatitude": 39.6837,
    "centroidLongitude": -75.7497,
    "areaSqMi": 0.0,
    "countyCount": 0,
    "logoUrl": "https://a.espncdn.com/combiner/i?img=/i/teamlogos/ncaa/500/48.png",
    "anchorFips": null,
    "region": null,
    "totalAreaSqMi": 0.0
  },
  {
    "teamId": "duke",
    "teamName": "Duke",
    "shortName": "Duke",
    "latitude": 36.0014,
    "longitude": -78.9382,
    "centroidLatitude": 36.0014,
    "centroidLongitude": -78.9382,
    "areaSqMi": 0.0,
    "countyCount": 0,
    "logoUrl": "https://a.espncdn.com/combiner/i?img=/i/teamlogos/ncaa/500/150.png",
    "anchorFips": null,
    "region": null,
    "totalAreaSqMi": 0.0
  },
  {
    "teamId": "east-carolina",
    "teamName": "East Carolina",
    "shortName": "East Carolina",
    "latitude": 35.6087,
    "longitude": -77.3663,
    "centroidLatitude": 35.6087,
    "centroidLongitude": -77.3663,
    "areaSqMi": 0.0,
    "countyCount": 0,
    "logoUrl": "https://a.espncdn.com/combiner/i?img=/i/teamlogos/ncaa/500/151.png",
    "anchorFips": null,
    "region": null,
    "totalAreaSqMi": 0.0
  },
  {
    "teamId": "eastern-michigan",
    "teamName": "Eastern Michigan",
    "shortName": "Eastern Michigan",
    "latitude": 42.2459,
    "longitude": -83.6235,
    "centroidLatitude": 42.2459,
    "centroidLongitude": -83.6235,
    "areaSqMi": 0.0,
    "countyCount": 0,
    "logoUrl": "https://a.espncdn.com/combiner/i?img=/i/teamlogos/ncaa/500/2199.png",
    "anchorFips": null,
    "region": null,
    "totalAreaSqMi": 0.0
  },
  {
    "teamId": "fiu",
    "teamName": "FIU",
    "shortName": "FIU",
    "latitude": 26.007552952430377,
    "longitude": -81.55025242892596,
    "centroidLatitude": 25.676524850375028,
    "centroidLongitude": -81.37703969354737,
    "areaSqMi": 2981.606,
    "countyCount": 2,
    "logoUrl": "https://a.espncdn.com/combiner/i?img=/i/teamlogos/ncaa/500/2229.png",
    "anchorFips": "12021",
    "region": "mainland",
    "totalAreaSqMi": 2981.606
  },
  {
    "teamId": "florida",
    "teamName": "Florida",
    "shortName": "Florida",
    "latitude": 29.6436,
    "longitude": -82.3549,
    "centroidLatitude": 29.6436,
    "centroidLongitude": -82.3549,
    "areaSqMi": 0.0,
    "countyCount": 0,
    "logoUrl": "https://a.espncdn.com/combiner/i?img=/i/teamlogos/ncaa/500/57.png",
    "anchorFips": null,
    "region": null,
    "totalAreaSqMi": 0.0
  },
  {
    "teamId": "florida-atlantic",
    "teamName": "Florida Atlantic",
    "shortName": "Florida Atlantic",
    "latitude": 26.372,
    "longitude": -80.1009,
    "centroidLatitude": 26.372,
    "centroidLongitude": -80.1009,
    "areaSqMi": 0.0,
    "countyCount": 0,
    "logoUrl": "https://a.espncdn.com/combiner/i?img=/i/teamlogos/ncaa/500/2226.png",
    "anchorFips": null,
    "region": null,
    "totalAreaSqMi": 0.0
  },
  {
    "teamId": "florida-state",
    "teamName": "Florida State",
    "shortName": "Florida State",
    "latitude": 31.15214474048644,
    "longitude": -84.74497753166841,
    "centroidLatitude": 31.474321243507944,
    "centroidLongitude": -85.36820066281426,
    "areaSqMi": 24700.68900000001,
    "countyCount": 43,
    "logoUrl": "https://a.espncdn.com/combiner/i?img=/i/teamlogos/ncaa/500/52.png",
    "anchorFips": "13201",
    "region": "mainland",
    "totalAreaSqMi": 24700.68900000001
  },
  {
    "teamId": "fresno-state",
    "teamName": "Fresno State",
    "shortName": "Fresno State",
    "latitude": 45.48083600235558,
    "longitude": -120.32856091231704,
    "centroidLatitude": 40.73834260513054,
    "centroidLongitude": -100.78909883574312,
    "areaSqMi": 41419.83300000002,
    "countyCount": 63,
    "logoUrl": "https://a.espncdn.com/combiner/i?img=/i/teamlogos/ncaa/500/278.png",
    "anchorFips": "41021",
    "region": "mainland",
    "totalAreaSqMi": 41419.83300000002
  },
  {
    "teamId": "georgia",
    "teamName": "Georgia",
    "shortName": "Georgia",
    "latitude": 38.47742778518077,
    "longitude": -81.07978621082773,
    "centroidLatitude": 39.31552410019234,
    "centroidLongitude": -80.1793774138068,
    "areaSqMi": 61453.901999999995,
    "countyCount": 119,
    "logoUrl": "https://a.espncdn.com/combiner/i?img=/i/teamlogos/ncaa/500/61.png",
    "anchorFips": "54015",
    "region": "mainland",
    "totalAreaSqMi": 61453.901999999995
  },
  {
    "teamId": "georgia-southern",
    "teamName": "Georgia Southern",
    "shortName": "Georgia Southern",
    "latitude": 37.19364056539223,
    "longitude": -79.13768545237537,
    "centroidLatitude": 37.251592462878186,
    "centroidLongitude": -79.1112512491006,
    "areaSqMi": 5808.53,
    "countyCount": 15,
    "logoUrl": "https://a.espncdn.com/combiner/i?img=/i/teamlogos/ncaa/500/290.png",
    "anchorFips": "51031",
    "region": "mainland",
    "totalAreaSqMi": 5808.53
  },
  {
    "teamId": "georgia-state",
    "teamName": "Georgia State",
    "shortName": "Georgia State",
    "latitude": 33.753,
    "longitude": -84.3849,
    "centroidLatitude": 33.753,
    "centroidLongitude": -84.3849,
    "areaSqMi": 0.0,
    "countyCount": 0,
    "logoUrl": "https://a.espncdn.com/combiner/i?img=/i/teamlogos/ncaa/500/2247.png",
    "anchorFips": null,
    "region": null,
    "totalAreaSqMi": 0.0
  },
  {
    "teamId": "georgia-tech",
    "teamName": "Georgia Tech",
    "shortName": "Georgia Tech",
    "latitude": 39.857029835052955,
    "longitude": -104.68999793959406,
    "centroidLatitude": 36.83850750547841,
    "centroidLongitude": -97.61043704743777,
    "areaSqMi": 41427.81100000001,
    "countyCount": 46,
    "logoUrl": "https://a.espncdn.com/combiner/i?img=/i/teamlogos/ncaa/500/154.png",
    "anchorFips": "08001",
    "region": "mainland",
    "totalAreaSqMi": 41427.81100000001
  },
  {
    "teamId": "hawaii",
    "teamName": "Hawaii",
    "shortName": "Hawaii",
    "latitude": 20.875430971003112,
    "longitude": -156.63810370071232,
    "centroidLatitude": 20.245128213399656,
    "centroidLongitude": -156.36335184317608,
    "areaSqMi": 6422.628000000001,
    "countyCount": 5,
    "logoUrl": "https://a.espncdn.com/combiner/i?img=/i/teamlogos/ncaa/500/62.png",
    "anchorFips": "15009",
    "region": "mainland",
    "totalAreaSqMi": 6422.628000000001
  },
  {
    "teamId": "houston",
    "teamName": "Houston",
    "shortName": "Houston",
    "latitude": 31.103928808990837,
    "longitude": -91.9922421062773,
    "centroidLatitude": 31.81598747653938,
    "centroidLongitude": -91.29772991443296,
    "areaSqMi": 34530.286,
    "countyCount": 44,
    "logoUrl": "https://a.espncdn.com/combiner/i?img=/i/teamlogos/ncaa/500/248.png",
    "anchorFips": "22009",
    "region": "mainland",
    "totalAreaSqMi": 34530.286
  },
  {
    "teamId": "illinois",
    "teamName": "Illinois",
    "shortName": "Illinois",
    "latitude": 39.3371689476847,
    "longitude": -87.65531741179683,
    "centroidLatitude": 39.13528066716325,
    "centroidLongitude": -87.10775648001392,
    "areaSqMi": 27866.68199999999,
    "countyCount": 50,
    "logoUrl": "https://a.espncdn.com/combiner/i?img=/i/teamlogos/ncaa/500/356.png",
    "anchorFips": "17023",
    "region": "mainland",
    "totalAreaSqMi": 27866.68199999999
  },
  {
    "teamId": "indiana",
    "teamName": "Indiana",
    "shortName": "Indiana",
    "latitude": 39.00096448583464,
    "longitude": -85.65558894015025,
    "centroidLatitude": 38.19429786966713,
    "centroidLongitude": -82.1482289736322,
    "areaSqMi": 20799.131999999998,
    "countyCount": 72,
    "logoUrl": "https://a.espncdn.com/combiner/i?img=/i/teamlogos/ncaa/500/84.png",
    "anchorFips": "18079",
    "region": "mainland",
    "totalAreaSqMi": 20799.131999999998
  },
  {
    "teamId": "iowa",
    "teamName": "Iowa",
    "shortName": "Iowa",
    "latitude": 41.6611,
    "longitude": -91.5302,
    "centroidLatitude": 41.6611,
    "centroidLongitude": -91.5302,
    "areaSqMi": 0.0,
    "countyCount": 0,
    "logoUrl": "https://a.espncdn.com/combiner/i?img=/i/teamlogos/ncaa/500/2294.png",
    "anchorFips": null,
    "region": null,
    "totalAreaSqMi": 0.0
  },
  {
    "teamId": "iowa-state",
    "teamName": "Iowa State",
    "shortName": "Iowa State",
    "latitude": 41.08454591325835,
    "longitude": -94.7329013851544,
    "centroidLatitude": 40.80134657913618,
    "centroidLongitude": -95.05355788969044,
    "areaSqMi": 94072.98599999998,
    "countyCount": 148,
    "logoUrl": "https://a.espncdn.com/combiner/i?img=/i/teamlogos/ncaa/500/66.png",
    "anchorFips": "19003",
    "region": "mainland",
    "totalAreaSqMi": 94072.98599999998
  },
  {
    "teamId": "jacksonville-state",
    "teamName": "Jacksonville State",
    "shortName": "Jacksonville State",
    "latitude": 33.8204,
    "longitude": -85.7702,
    "centroidLatitude": 33.8204,
    "centroidLongitude": -85.7702,
    "areaSqMi": 0.0,
    "countyCount": 0,
    "logoUrl": "https://a.espncdn.com/combiner/i?img=/i/teamlogos/ncaa/500/55.png",
    "anchorFips": null,
    "region": null,
    "totalAreaSqMi": 0.0
  },
  {
    "teamId": "james-madison",
    "teamName": "James Madison",
    "shortName": "James Madison",
    "latitude": 38.4354,
    "longitude": -78.8698,
    "centroidLatitude": 38.4354,
    "centroidLongitude": -78.8698,
    "areaSqMi": 0.0,
    "countyCount": 0,
    "logoUrl": "https://a.espncdn.com/combiner/i?img=/i/teamlogos/ncaa/500/256.png",
    "anchorFips": null,
    "region": null,
    "totalAreaSqMi": 0.0
  },
  {
    "teamId": "kansas",
    "teamName": "Kansas",
    "shortName": "Kansas",
    "latitude": 38.9543,
    "longitude": -95.2558,
    "centroidLatitude": 38.9543,
    "centroidLongitude": -95.2558,
    "areaSqMi": 0.0,
    "countyCount": 0,
    "logoUrl": "https://a.espncdn.com/combiner/i?img=/i/teamlogos/ncaa/500/2305.png",
    "anchorFips": null,
    "region": null,
    "totalAreaSqMi": 0.0
  },
  {
    "teamId": "kansas-state",
    "teamName": "Kansas State",
    "shortName": "Kansas State",
    "latitude": 39.1956,
    "longitude": -96.5847,
    "centroidLatitude": 39.1956,
    "centroidLongitude": -96.5847,
    "areaSqMi": 0.0,
    "countyCount": 0,
    "logoUrl": "https://a.espncdn.com/combiner/i?img=/i/teamlogos/ncaa/500/2306.png",
    "anchorFips": null,
    "region": null,
    "totalAreaSqMi": 0.0
  },
  {
    "teamId": "kennesaw-state",
    "teamName": "Kennesaw State",
    "shortName": "Kennesaw State",
    "latitude": 34.0234,
    "longitude": -84.5816,
    "centroidLatitude": 34.0234,
    "centroidLongitude": -84.5816,
    "areaSqMi": 0.0,
    "countyCount": 0,
    "logoUrl": "https://a.espncdn.com/combiner/i?img=/i/teamlogos/ncaa/500/338.png",
    "anchorFips": null,
    "region": null,
    "totalAreaSqMi": 0.0
  },
  {
    "teamId": "kent-state",
    "teamName": "Kent State",
    "shortName": "Kent State",
    "latitude": 41.1498,
    "longitude": -81.3436,
    "centroidLatitude": 41.1498,
    "centroidLongitude": -81.3436,
    "areaSqMi": 0.0,
    "countyCount": 0,
    "logoUrl": "https://a.espncdn.com/combiner/i?img=/i/teamlogos/ncaa/500/2309.png",
    "anchorFips": null,
    "region": null,
    "totalAreaSqMi": 0.0
  },
  {
    "teamId": "kentucky",
    "teamName": "Kentucky",
    "shortName": "Kentucky",
    "latitude": 38.0307,
    "longitude": -84.5041,
    "centroidLatitude": 38.0307,
    "centroidLongitude": -84.5041,
    "areaSqMi": 0.0,
    "countyCount": 0,
    "logoUrl": "https://a.espncdn.com/combiner/i?img=/i/teamlogos/ncaa/500/96.png",
    "anchorFips": null,
    "region": null,
    "totalAreaSqMi": 0.0
  },
  {
    "teamId": "lsu",
    "teamName": "LSU",
    "shortName": "LSU",
    "latitude": 32.88644290461529,
    "longitude": -92.43095966437693,
    "centroidLatitude": 32.926976850626716,
    "centroidLongitude": -90.78884444679298,
    "areaSqMi": 44820.57099999999,
    "countyCount": 77,
    "logoUrl": "https://a.espncdn.com/combiner/i?img=/i/teamlogos/ncaa/500/99.png",
    "anchorFips": "22111",
    "region": "mainland",
    "totalAreaSqMi": 44820.57099999999
  },
  {
    "teamId": "liberty",
    "teamName": "Liberty",
    "shortName": "Liberty",
    "latitude": 37.3518,
    "longitude": -79.1817,
    "centroidLatitude": 37.3518,
    "centroidLongitude": -79.1817,
    "areaSqMi": 0.0,
    "countyCount": 0,
    "logoUrl": "https://a.espncdn.com/combiner/i?img=/i/teamlogos/ncaa/500/2403.png",
    "anchorFips": null,
    "region": null,
    "totalAreaSqMi": 0.0
  },
  {
    "teamId": "louisiana",
    "teamName": "Louisiana",
    "shortName": "Louisiana",
    "latitude": 30.2141,
    "longitude": -92.0198,
    "centroidLatitude": 30.2141,
    "centroidLongitude": -92.0198,
    "areaSqMi": 0.0,
    "countyCount": 0,
    "logoUrl": "https://a.espncdn.com/combiner/i?img=/i/teamlogos/ncaa/500/309.png",
    "anchorFips": null,
    "region": null,
    "totalAreaSqMi": 0.0
  },
  {
    "teamId": "louisiana-tech",
    "teamName": "Louisiana Tech",
    "shortName": "Louisiana Tech",
    "latitude": 35.438210001748836,
    "longitude": -96.29315727200972,
    "centroidLatitude": 34.64031369401843,
    "centroidLongitude": -101.37092279702578,
    "areaSqMi": 32581.088000000003,
    "countyCount": 27,
    "logoUrl": "https://a.espncdn.com/combiner/i?img=/i/teamlogos/ncaa/500/246.png",
    "anchorFips": "40107",
    "region": "mainland",
    "totalAreaSqMi": 32581.088000000003
  },
  {
    "teamId": "louisville",
    "teamName": "Louisville",
    "shortName": "Louisville",
    "latitude": 38.4463178769315,
    "longitude": -85.06768831958485,
    "centroidLatitude": 38.41472226483761,
    "centroidLongitude": -82.73352283779526,
    "areaSqMi": 17908.665000000005,
    "countyCount": 46,
    "logoUrl": "https://a.espncdn.com/combiner/i?img=/i/teamlogos/ncaa/500/97.png",
    "anchorFips": "21103",
    "region": "mainland",
    "totalAreaSqMi": 17908.665000000005
  },
  {
    "teamId": "marshall",
    "teamName": "Marshall",
    "shortName": "Marshall",
    "latitude": 38.4226,
    "longitude": -82.4215,
    "centroidLatitude": 38.4226,
    "centroidLongitude": -82.4215,
    "areaSqMi": 0.0,
    "countyCount": 0,
    "logoUrl": "https://a.espncdn.com/combiner/i?img=/i/teamlogos/ncaa/500/276.png",
    "anchorFips": null,
    "region": null,
    "totalAreaSqMi": 0.0
  },
  {
    "teamId": "maryland",
    "teamName": "Maryland",
    "shortName": "Maryland",
    "latitude": 38.78591047824233,
    "longitude": -77.81863438564189,
    "centroidLatitude": 36.5876070062263,
    "centroidLongitude": -82.71045399329137,
    "areaSqMi": 24041.859,
    "countyCount": 52,
    "logoUrl": "https://a.espncdn.com/combiner/i?img=/i/teamlogos/ncaa/500/120.png",
    "anchorFips": "51061",
    "region": "mainland",
    "totalAreaSqMi": 24041.859
  },
  {
    "teamId": "memphis",
    "teamName": "Memphis",
    "shortName": "Memphis",
    "latitude": 35.20037487523525,
    "longitude": -90.01849148273962,
    "centroidLatitude": 35.14861921045868,
    "centroidLongitude": -89.84217806998919,
    "areaSqMi": 11171.876999999999,
    "countyCount": 20,
    "logoUrl": "https://a.espncdn.com/combiner/i?img=/i/teamlogos/ncaa/500/235.png",
    "anchorFips": "47157",
    "region": "mainland",
    "totalAreaSqMi": 11171.876999999999
  },
  {
    "teamId": "miami",
    "teamName": "Miami",
    "shortName": "Miami",
    "latitude": 43.683717205709506,
    "longitude": -113.25317339427643,
    "centroidLatitude": 41.42331898889881,
    "centroidLongitude": -106.8123798815063,
    "areaSqMi": 126652.42300000002,
    "countyCount": 74,
    "logoUrl": "https://a.espncdn.com/combiner/i?img=/i/teamlogos/ncaa/500/2390.png",
    "anchorFips": "16023",
    "region": "mainland",
    "totalAreaSqMi": 126652.42300000002
  },
  {
    "teamId": "miami-oh",
    "teamName": "Miami (OH)",
    "shortName": "Miami (OH)",
    "latitude": 39.5109,
    "longitude": -84.7328,
    "centroidLatitude": 39.5109,
    "centroidLongitude": -84.7328,
    "areaSqMi": 0.0,
    "countyCount": 0,
    "logoUrl": "https://a.espncdn.com/combiner/i?img=/i/teamlogos/ncaa/500/193.png",
    "anchorFips": null,
    "region": null,
    "totalAreaSqMi": 0.0
  },
  {
    "teamId": "michigan",
    "teamName": "Michigan",
    "shortName": "Michigan",
    "latitude": 42.2681,
    "longitude": -83.7312,
    "centroidLatitude": 42.2681,
    "centroidLongitude": -83.7312,
    "areaSqMi": 0.0,
    "countyCount": 0,
    "logoUrl": "https://a.espncdn.com/combiner/i?img=/i/teamlogos/ncaa/500/130.png",
    "anchorFips": null,
    "region": null,
    "totalAreaSqMi": 0.0
  },
  {
    "teamId": "michigan-state",
    "teamName": "Michigan State",
    "shortName": "Michigan State",
    "latitude": 44.797730147916226,
    "longitude": -71.39246023711021,
    "centroidLatitude": 44.45632378730573,
    "centroidLongitude": -72.89601039451264,
    "areaSqMi": 52601.558999999994,
    "countyCount": 53,
    "logoUrl": "https://a.espncdn.com/combiner/i?img=/i/teamlogos/ncaa/500/127.png",
    "anchorFips": "33007",
    "region": "mainland",
    "totalAreaSqMi": 52601.558999999994
  },
  {
    "teamId": "middle-tennessee",
    "teamName": "Middle Tennessee",
    "shortName": "Middle Tennessee",
    "latitude": 35.8517,
    "longitude": -86.3694,
    "centroidLatitude": 35.8517,
    "centroidLongitude": -86.3694,
    "areaSqMi": 0.0,
    "countyCount": 0,
    "logoUrl": "https://a.espncdn.com/combiner/i?img=/i/teamlogos/ncaa/500/2393.png",
    "anchorFips": null,
    "region": null,
    "totalAreaSqMi": 0.0
  },
  {
    "teamId": "minnesota",
    "teamName": "Minnesota",
    "shortName": "Minnesota",
    "latitude": 46.609012831410396,
    "longitude": -94.93804905274297,
    "centroidLatitude": 46.34566672374348,
    "centroidLongitude": -94.85474787859543,
    "areaSqMi": 181976.66199999995,
    "countyCount": 185,
    "logoUrl": "https://a.espncdn.com/combiner/i?img=/i/teamlogos/ncaa/500/135.png",
    "anchorFips": "27159",
    "region": "mainland",
    "totalAreaSqMi": 181976.66199999995
  },
  {
    "teamId": "mississippi-state",
    "teamName": "Mississippi State",
    "shortName": "Mississippi State",
    "latitude": 35.23884396845498,
    "longitude": -110.16713688023019,
    "centroidLatitude": 34.318820092253965,
    "centroidLongitude": -105.20177262923742,
    "areaSqMi": 94134.24500000001,
    "countyCount": 54,
    "logoUrl": "https://a.espncdn.com/combiner/i?img=/i/teamlogos/ncaa/500/344.png",
    "anchorFips": "04017",
    "region": "mainland",
    "totalAreaSqMi": 94134.24500000001
  },
  {
    "teamId": "missouri",
    "teamName": "Missouri",
    "shortName": "Missouri",
    "latitude": 37.938659242091646,
    "longitude": -96.23712757501009,
    "centroidLatitude": 38.927414946527925,
    "centroidLongitude": -102.63770219106887,
    "areaSqMi": 82976.37599999999,
    "countyCount": 104,
    "logoUrl": "https://a.espncdn.com/combiner/i?img=/i/teamlogos/ncaa/500/142.png",
    "anchorFips": "20073",
    "region": "mainland",
    "totalAreaSqMi": 82976.37599999999
  },
  {
    "teamId": "missouri-state",
    "teamName": "Missouri State",
    "shortName": "Missouri State",
    "latitude": 37.194,
    "longitude": -93.2923,
    "centroidLatitude": 37.194,
    "centroidLongitude": -93.2923,
    "areaSqMi": 0.0,
    "countyCount": 0,
    "logoUrl": "https://a.espncdn.com/combiner/i?img=/i/teamlogos/ncaa/500/2623.png",
    "anchorFips": null,
    "region": null,
    "totalAreaSqMi": 0.0
  },
  {
    "teamId": "nc-state",
    "teamName": "NC State",
    "shortName": "NC State",
    "latitude": 35.00731751633483,
    "longitude": -79.1789823167317,
    "centroidLatitude": 35.39021525127759,
    "centroidLongitude": -79.37957045849222,
    "areaSqMi": 46685.819999999985,
    "countyCount": 94,
    "logoUrl": "https://a.espncdn.com/combiner/i?img=/i/teamlogos/ncaa/500/152.png",
    "anchorFips": "37093",
    "region": "mainland",
    "totalAreaSqMi": 46685.819999999985
  },
  {
    "teamId": "navy",
    "teamName": "Navy",
    "shortName": "Navy",
    "latitude": 34.48015002855029,
    "longitude": -86.90782908747649,
    "centroidLatitude": 35.9005034639957,
    "centroidLongitude": -82.4995437964612,
    "areaSqMi": 12557.426,
    "countyCount": 23,
    "logoUrl": "https://a.espncdn.com/combiner/i?img=/i/teamlogos/ncaa/500/2426.png",
    "anchorFips": "01103",
    "region": "mainland",
    "totalAreaSqMi": 12557.426
  },
  {
    "teamId": "nebraska",
    "teamName": "Nebraska",
    "shortName": "Nebraska",
    "latitude": 41.89489278703647,
    "longitude": -97.65859949395936,
    "centroidLatitude": 41.77821903833598,
    "centroidLongitude": -97.44565972812752,
    "areaSqMi": 88974.48399999992,
    "countyCount": 134,
    "logoUrl": "https://a.espncdn.com/combiner/i?img=/i/teamlogos/ncaa/500/158.png",
    "anchorFips": "31119",
    "region": "mainland",
    "totalAreaSqMi": 88974.48399999992
  },
  {
    "teamId": "nevada",
    "teamName": "Nevada",
    "shortName": "Nevada",
    "latitude": 39.5447,
    "longitude": -119.8138,
    "centroidLatitude": 39.5447,
    "centroidLongitude": -119.8138,
    "areaSqMi": 0.0,
    "countyCount": 0,
    "logoUrl": "https://a.espncdn.com/combiner/i?img=/i/teamlogos/ncaa/500/2440.png",
    "anchorFips": null,
    "region": null,
    "totalAreaSqMi": 0.0
  },
  {
    "teamId": "new-mexico",
    "teamName": "New Mexico",
    "shortName": "New Mexico",
    "latitude": 35.0834,
    "longitude": -106.6195,
    "centroidLatitude": 35.0834,
    "centroidLongitude": -106.6195,
    "areaSqMi": 0.0,
    "countyCount": 0,
    "logoUrl": "https://a.espncdn.com/combiner/i?img=/i/teamlogos/ncaa/500/167.png",
    "anchorFips": null,
    "region": null,
    "totalAreaSqMi": 0.0
  },
  {
    "teamId": "new-mexico-state",
    "teamName": "New Mexico State",
    "shortName": "New Mexico State",
    "latitude": 32.2844,
    "longitude": -106.7517,
    "centroidLatitude": 32.2844,
    "centroidLongitude": -106.7517,
    "areaSqMi": 0.0,
    "countyCount": 0,
    "logoUrl": "https://a.espncdn.com/combiner/i?img=/i/teamlogos/ncaa/500/166.png",
    "anchorFips": null,
    "region": null,
    "totalAreaSqMi": 0.0
  },
  {
    "teamId": "north-carolina",
    "teamName": "North Carolina",
    "shortName": "North Carolina",
    "latitude": 35.20283568141683,
    "longitude": -80.8984037034084,
    "centroidLatitude": 35.18191335746709,
    "centroidLongitude": -80.68693537208021,
    "areaSqMi": 8432.864,
    "countyCount": 17,
    "logoUrl": "https://a.espncdn.com/combiner/i?img=/i/teamlogos/ncaa/500/153.png",
    "anchorFips": "37119",
    "region": "mainland",
    "totalAreaSqMi": 8432.864
  },
  {
    "teamId": "north-texas",
    "teamName": "North Texas",
    "shortName": "North Texas",
    "latitude": 45.89088319233541,
    "longitude": -112.63371544476348,
    "centroidLatitude": 44.919243550952814,
    "centroidLongitude": -113.00352640022048,
    "areaSqMi": 150835.132,
    "countyCount": 72,
    "logoUrl": "https://a.espncdn.com/combiner/i?img=/i/teamlogos/ncaa/500/249.png",
    "anchorFips": "30093",
    "region": "mainland",
    "totalAreaSqMi": 150835.132
  },
  {
    "teamId": "northern-illinois",
    "teamName": "Northern Illinois",
    "shortName": "Northern Illinois",
    "latitude": 41.9306,
    "longitude": -88.754,
    "centroidLatitude": 41.9306,
    "centroidLongitude": -88.754,
    "areaSqMi": 0.0,
    "countyCount": 0,
    "logoUrl": "https://a.espncdn.com/combiner/i?img=/i/teamlogos/ncaa/500/2459.png",
    "anchorFips": null,
    "region": null,
    "totalAreaSqMi": 0.0
  },
  {
    "teamId": "northwestern",
    "teamName": "Northwestern",
    "shortName": "Northwestern",
    "latitude": 42.0564,
    "longitude": -87.6755,
    "centroidLatitude": 42.0564,
    "centroidLongitude": -87.6755,
    "areaSqMi": 0.0,
    "countyCount": 0,
    "logoUrl": "https://a.espncdn.com/combiner/i?img=/i/teamlogos/ncaa/500/77.png",
    "anchorFips": null,
    "region": null,
    "totalAreaSqMi": 0.0
  },
  {
    "teamId": "notre-dame",
    "teamName": "Notre Dame",
    "shortName": "Notre Dame",
    "latitude": 41.7001,
    "longitude": -86.2379,
    "centroidLatitude": 41.7001,
    "centroidLongitude": -86.2379,
    "areaSqMi": 0.0,
    "countyCount": 0,
    "logoUrl": "https://a.espncdn.com/combiner/i?img=/i/teamlogos/ncaa/500/87.png",
    "anchorFips": null,
    "region": null,
    "totalAreaSqMi": 0.0
  },
  {
    "teamId": "ohio",
    "teamName": "Ohio",
    "shortName": "Ohio",
    "latitude": 39.3292,
    "longitude": -82.1013,
    "centroidLatitude": 39.3292,
    "centroidLongitude": -82.1013,
    "areaSqMi": 0.0,
    "countyCount": 0,
    "logoUrl": "https://a.espncdn.com/combiner/i?img=/i/teamlogos/ncaa/500/195.png",
    "anchorFips": null,
    "region": null,
    "totalAreaSqMi": 0.0
  },
  {
    "teamId": "ohio-state",
    "teamName": "Ohio State",
    "shortName": "Ohio State",
    "latitude": 39.86769928139281,
    "longitude": -83.90846001141796,
    "centroidLatitude": 36.7820551178303,
    "centroidLongitude": -87.64599957347133,
    "areaSqMi": 27053.29700000001,
    "countyCount": 49,
    "logoUrl": "https://a.espncdn.com/combiner/i?img=/i/teamlogos/ncaa/500/194.png",
    "anchorFips": "39023",
    "region": "mainland",
    "totalAreaSqMi": 27053.29700000001
  },
  {
    "teamId": "oklahoma",
    "teamName": "Oklahoma",
    "shortName": "Oklahoma",
    "latitude": 35.86495237341988,
    "longitude": -103.8733495910753,
    "centroidLatitude": 35.88556885643885,
    "centroidLongitude": -103.43723413887602,
    "areaSqMi": 127465.845,
    "countyCount": 77,
    "logoUrl": "https://a.espncdn.com/combiner/i?img=/i/teamlogos/ncaa/500/201.png",
    "anchorFips": "35021",
    "region": "mainland",
    "totalAreaSqMi": 127465.845
  },
  {
    "teamId": "oklahoma-state",
    "teamName": "Oklahoma State",
    "shortName": "Oklahoma State",
    "latitude": 36.1156,
    "longitude": -97.0683,
    "centroidLatitude": 36.1156,
    "centroidLongitude": -97.0683,
    "areaSqMi": 0.0,
    "countyCount": 0,
    "logoUrl": "https://a.espncdn.com/combiner/i?img=/i/teamlogos/ncaa/500/197.png",
    "anchorFips": null,
    "region": null,
    "totalAreaSqMi": 0.0
  },
  {
    "teamId": "old-dominion",
    "teamName": "Old Dominion",
    "shortName": "Old Dominion",
    "latitude": 36.8851,
    "longitude": -76.3058,
    "centroidLatitude": 36.8851,
    "centroidLongitude": -76.3058,
    "areaSqMi": 0.0,
    "countyCount": 0,
    "logoUrl": "https://a.espncdn.com/combiner/i?img=/i/teamlogos/ncaa/500/295.png",
    "anchorFips": null,
    "region": null,
    "totalAreaSqMi": 0.0
  },
  {
    "teamId": "ole-miss",
    "teamName": "Ole Miss",
    "shortName": "Ole Miss",
    "latitude": 35.781944912787495,
    "longitude": -89.91994485519201,
    "centroidLatitude": 36.021090006229166,
    "centroidLongitude": -89.97154260281812,
    "areaSqMi": 83944.24000000002,
    "countyCount": 166,
    "logoUrl": "https://a.espncdn.com/combiner/i?img=/i/teamlogos/ncaa/500/145.png",
    "anchorFips": "05093",
    "region": "mainland",
    "totalAreaSqMi": 83944.24000000002
  },
  {
    "teamId": "oregon",
    "teamName": "Oregon",
    "shortName": "Oregon",
    "latitude": 42.77429073295346,
    "longitude": -120.42189973175738,
    "centroidLatitude": 41.31152917126911,
    "centroidLongitude": -113.46242892051639,
    "areaSqMi": 79909.811,
    "countyCount": 45,
    "logoUrl": "https://a.espncdn.com/combiner/i?img=/i/teamlogos/ncaa/500/2483.png",
    "anchorFips": "41037",
    "region": "mainland",
    "totalAreaSqMi": 79909.811
  },
  {
    "teamId": "oregon-state",
    "teamName": "Oregon State",
    "shortName": "Oregon State",
    "latitude": 44.5637,
    "longitude": -123.2794,
    "centroidLatitude": 44.5637,
    "centroidLongitude": -123.2794,
    "areaSqMi": 0.0,
    "countyCount": 0,
    "logoUrl": "https://a.espncdn.com/combiner/i?img=/i/teamlogos/ncaa/500/204.png",
    "anchorFips": null,
    "region": null,
    "totalAreaSqMi": 0.0
  },
  {
    "teamId": "penn-state",
    "teamName": "Penn State",
    "shortName": "Penn State",
    "latitude": 40.044541591499765,
    "longitude": -116.20394971698647,
    "centroidLatitude": 41.55515734743969,
    "centroidLongitude": -111.35662498189534,
    "areaSqMi": 94426.12300000002,
    "countyCount": 56,
    "logoUrl": "https://a.espncdn.com/combiner/i?img=/i/teamlogos/ncaa/500/213.png",
    "anchorFips": "32011",
    "region": "mainland",
    "totalAreaSqMi": 94426.12300000002
  },
  {
    "teamId": "pittsburgh",
    "teamName": "Pittsburgh",
    "shortName": "Pittsburgh",
    "latitude": 40.4445,
    "longitude": -79.9608,
    "centroidLatitude": 40.4445,
    "centroidLongitude": -79.9608,
    "areaSqMi": 0.0,
    "countyCount": 0,
    "logoUrl": "https://a.espncdn.com/combiner/i?img=/i/teamlogos/ncaa/500/221.png",
    "anchorFips": null,
    "region": null,
    "totalAreaSqMi": 0.0
  },
  {
    "teamId": "purdue",
    "teamName": "Purdue",
    "shortName": "Purdue",
    "latitude": 40.4237,
    "longitude": -87.0078,
    "centroidLatitude": 40.4237,
    "centroidLongitude": -87.0078,
    "areaSqMi": 0.0,
    "countyCount": 0,
    "logoUrl": "https://a.espncdn.com/combiner/i?img=/i/teamlogos/ncaa/500/2509.png",
    "anchorFips": null,
    "region": null,
    "totalAreaSqMi": 0.0
  },
  {
    "teamId": "rice",
    "teamName": "Rice",
    "shortName": "Rice",
    "latitude": 29.7174,
    "longitude": -95.4018,
    "centroidLatitude": 29.7174,
    "centroidLongitude": -95.4018,
    "areaSqMi": 0.0,
    "countyCount": 0,
    "logoUrl": "https://a.espncdn.com/combiner/i?img=/i/teamlogos/ncaa/500/203.png",
    "anchorFips": null,
    "region": null,
    "totalAreaSqMi": 0.0
  },
  {
    "teamId": "rutgers",
    "teamName": "Rutgers",
    "shortName": "Rutgers",
    "latitude": 39.19046926708122,
    "longitude": -81.09727935632684,
    "centroidLatitude": 40.0143582009727,
    "centroidLongitude": -78.77193520070742,
    "areaSqMi": 13677.862000000001,
    "countyCount": 37,
    "logoUrl": "https://a.espncdn.com/combiner/i?img=/i/teamlogos/ncaa/500/164.png",
    "anchorFips": "54085",
    "region": "mainland",
    "totalAreaSqMi": 13677.862000000001
  },
  {
    "teamId": "smu",
    "teamName": "SMU",
    "shortName": "SMU",
    "latitude": 32.8403,
    "longitude": -96.7848,
    "centroidLatitude": 32.8403,
    "centroidLongitude": -96.7848,
    "areaSqMi": 0.0,
    "countyCount": 0,
    "logoUrl": "https://a.espncdn.com/combiner/i?img=/i/teamlogos/ncaa/500/2567.png",
    "anchorFips": null,
    "region": null,
    "totalAreaSqMi": 0.0
  },
  {
    "teamId": "sam-houston",
    "teamName": "Sam Houston",
    "shortName": "Sam Houston",
    "latitude": 30.7146,
    "longitude": -95.5521,
    "centroidLatitude": 30.7146,
    "centroidLongitude": -95.5521,
    "areaSqMi": 0.0,
    "countyCount": 0,
    "logoUrl": "https://a.espncdn.com/combiner/i?img=/i/teamlogos/ncaa/500/2534.png",
    "anchorFips": null,
    "region": null,
    "totalAreaSqMi": 0.0
  },
  {
    "teamId": "san-diego-state",
    "teamName": "San Diego State",
    "shortName": "San Diego State",
    "latitude": 32.7753,
    "longitude": -117.0709,
    "centroidLatitude": 32.7753,
    "centroidLongitude": -117.0709,
    "areaSqMi": 0.0,
    "countyCount": 0,
    "logoUrl": "https://a.espncdn.com/combiner/i?img=/i/teamlogos/ncaa/500/21.png",
    "anchorFips": null,
    "region": null,
    "totalAreaSqMi": 0.0
  },
  {
    "teamId": "san-jose-state",
    "teamName": "San Jose State",
    "shortName": "San Jose State",
    "latitude": 37.216159768311854,
    "longitude": -121.68424325621287,
    "centroidLatitude": 37.076197106089516,
    "centroidLongitude": -121.3565471999308,
    "areaSqMi": 10310.736,
    "countyCount": 7,
    "logoUrl": "https://a.espncdn.com/combiner/i?img=/i/teamlogos/ncaa/500/23.png",
    "anchorFips": "06085",
    "region": "mainland",
    "totalAreaSqMi": 10310.736
  },
  {
    "teamId": "south-alabama",
    "teamName": "South Alabama",
    "shortName": "South Alabama",
    "latitude": 30.6944,
    "longitude": -88.1867,
    "centroidLatitude": 30.6944,
    "centroidLongitude": -88.1867,
    "areaSqMi": 0.0,
    "countyCount": 0,
    "logoUrl": "https://a.espncdn.com/combiner/i?img=/i/teamlogos/ncaa/500/6.png",
    "anchorFips": null,
    "region": null,
    "totalAreaSqMi": 0.0
  },
  {
    "teamId": "south-carolina",
    "teamName": "South Carolina",
    "shortName": "South Carolina",
    "latitude": 34.0195,
    "longitude": -81.0348,
    "centroidLatitude": 34.0195,
    "centroidLongitude": -81.0348,
    "areaSqMi": 0.0,
    "countyCount": 0,
    "logoUrl": "https://a.espncdn.com/combiner/i?img=/i/teamlogos/ncaa/500/2579.png",
    "anchorFips": null,
    "region": null,
    "totalAreaSqMi": 0.0
  },
  {
    "teamId": "south-florida",
    "teamName": "South Florida",
    "shortName": "South Florida",
    "latitude": 28.0587,
    "longitude": -82.4139,
    "centroidLatitude": 28.0587,
    "centroidLongitude": -82.4139,
    "areaSqMi": 0.0,
    "countyCount": 0,
    "logoUrl": "https://a.espncdn.com/combiner/i?img=/i/teamlogos/ncaa/500/58.png",
    "anchorFips": null,
    "region": null,
    "totalAreaSqMi": 0.0
  },
  {
    "teamId": "southern-miss",
    "teamName": "Southern Miss",
    "shortName": "Southern Miss",
    "latitude": 31.3271,
    "longitude": -89.3462,
    "centroidLatitude": 31.3271,
    "centroidLongitude": -89.3462,
    "areaSqMi": 0.0,
    "countyCount": 0,
    "logoUrl": "https://a.espncdn.com/combiner/i?img=/i/teamlogos/ncaa/500/2572.png",
    "anchorFips": null,
    "region": null,
    "totalAreaSqMi": 0.0
  },
  {
    "teamId": "stanford",
    "teamName": "Stanford",
    "shortName": "Stanford",
    "latitude": 37.4275,
    "longitude": -122.1697,
    "centroidLatitude": 37.4275,
    "centroidLongitude": -122.1697,
    "areaSqMi": 0.0,
    "countyCount": 0,
    "logoUrl": "https://a.espncdn.com/combiner/i?img=/i/teamlogos/ncaa/500/24.png",
    "anchorFips": null,
    "region": null,
    "totalAreaSqMi": 0.0
  },
  {
    "teamId": "syracuse",
    "teamName": "Syracuse",
    "shortName": "Syracuse",
    "latitude": 43.0391,
    "longitude": -76.1352,
    "centroidLatitude": 43.0391,
    "centroidLongitude": -76.1352,
    "areaSqMi": 0.0,
    "countyCount": 0,
    "logoUrl": "https://a.espncdn.com/combiner/i?img=/i/teamlogos/ncaa/500/183.png",
    "anchorFips": null,
    "region": null,
    "totalAreaSqMi": 0.0
  },
  {
    "teamId": "tcu",
    "teamName": "TCU",
    "shortName": "TCU",
    "latitude": 32.812567801188514,
    "longitude": -97.29935325604154,
    "centroidLatitude": 33.244719447378394,
    "centroidLongitude": -95.74727373852514,
    "areaSqMi": 13572.114,
    "countyCount": 18,
    "logoUrl": "https://a.espncdn.com/combiner/i?img=/i/teamlogos/ncaa/500/2628.png",
    "anchorFips": "48439",
    "region": "mainland",
    "totalAreaSqMi": 13572.114
  },
  {
    "teamId": "temple",
    "teamName": "Temple",
    "shortName": "Temple",
    "latitude": 39.9811,
    "longitude": -75.1556,
    "centroidLatitude": 39.9811,
    "centroidLongitude": -75.1556,
    "areaSqMi": 0.0,
    "countyCount": 0,
    "logoUrl": "https://a.espncdn.com/combiner/i?img=/i/teamlogos/ncaa/500/218.png",
    "anchorFips": null,
    "region": null,
    "totalAreaSqMi": 0.0
  },
  {
    "teamId": "tennessee",
    "teamName": "Tennessee",
    "shortName": "Tennessee",
    "latitude": 35.9544,
    "longitude": -83.9295,
    "centroidLatitude": 35.9544,
    "centroidLongitude": -83.9295,
    "areaSqMi": 0.0,
    "countyCount": 0,
    "logoUrl": "https://a.espncdn.com/combiner/i?img=/i/teamlogos/ncaa/500/2633.png",
    "anchorFips": null,
    "region": null,
    "totalAreaSqMi": 0.0
  },
  {
    "teamId": "texas",
    "teamName": "Texas",
    "shortName": "Texas",
    "latitude": 30.2849,
    "longitude": -97.7341,
    "centroidLatitude": 30.2849,
    "centroidLongitude": -97.7341,
    "areaSqMi": 0.0,
    "countyCount": 0,
    "logoUrl": "https://a.espncdn.com/combiner/i?img=/i/teamlogos/ncaa/500/251.png",
    "anchorFips": null,
    "region": null,
    "totalAreaSqMi": 0.0
  },
  {
    "teamId": "texas-a-m",
    "teamName": "Texas A&M",
    "shortName": "Texas A&M",
    "latitude": 32.34773429116967,
    "longitude": -105.60945756019812,
    "centroidLatitude": 36.56882464852293,
    "centroidLongitude": -105.2812378298634,
    "areaSqMi": 190484.38799999998,
    "countyCount": 98,
    "logoUrl": "https://a.espncdn.com/combiner/i?img=/i/teamlogos/ncaa/500/245.png",
    "anchorFips": "35035",
    "region": "mainland",
    "totalAreaSqMi": 190484.38799999998
  },
  {
    "teamId": "texas-state",
    "teamName": "Texas State",
    "shortName": "Texas State",
    "latitude": 29.8833,
    "longitude": -97.9414,
    "centroidLatitude": 29.8833,
    "centroidLongitude": -97.9414,
    "areaSqMi": 0.0,
    "countyCount": 0,
    "logoUrl": "https://a.espncdn.com/combiner/i?img=/i/teamlogos/ncaa/500/326.png",
    "anchorFips": null,
    "region": null,
    "totalAreaSqMi": 0.0
  },
  {
    "teamId": "texas-tech",
    "teamName": "Texas Tech",
    "shortName": "Texas Tech",
    "latitude": 34.13362713900736,
    "longitude": -100.87995336372092,
    "centroidLatitude": 33.957737710725176,
    "centroidLongitude": -101.0076752103347,
    "areaSqMi": 98749.18900000001,
    "countyCount": 87,
    "logoUrl": "https://a.espncdn.com/combiner/i?img=/i/teamlogos/ncaa/500/2641.png",
    "anchorFips": "48345",
    "region": "mainland",
    "totalAreaSqMi": 98749.18900000001
  },
  {
    "teamId": "toledo",
    "teamName": "Toledo",
    "shortName": "Toledo",
    "latitude": 37.151961542018526,
    "longitude": -88.661599259564,
    "centroidLatitude": 34.46877875314836,
    "centroidLongitude": -91.0075118391493,
    "areaSqMi": 29792.856000000003,
    "countyCount": 59,
    "logoUrl": "https://a.espncdn.com/combiner/i?img=/i/teamlogos/ncaa/500/2649.png",
    "anchorFips": "17127",
    "region": "mainland",
    "totalAreaSqMi": 29792.856000000003
  },
  {
    "teamId": "troy",
    "teamName": "Troy",
    "shortName": "Troy",
    "latitude": 31.8018,
    "longitude": -85.9699,
    "centroidLatitude": 31.8018,
    "centroidLongitude": -85.9699,
    "areaSqMi": 0.0,
    "countyCount": 0,
    "logoUrl": "https://a.espncdn.com/combiner/i?img=/i/teamlogos/ncaa/500/2653.png",
    "anchorFips": null,
    "region": null,
    "totalAreaSqMi": 0.0
  },
  {
    "teamId": "tulane",
    "teamName": "Tulane",
    "shortName": "Tulane",
    "latitude": 31.63797939937102,
    "longitude": -87.85488541948719,
    "centroidLatitude": 32.652919912717856,
    "centroidLongitude": -88.50118457258867,
    "areaSqMi": 20897.14499999999,
    "countyCount": 30,
    "logoUrl": "https://a.espncdn.com/combiner/i?img=/i/teamlogos/ncaa/500/2655.png",
    "anchorFips": "01025",
    "region": "mainland",
    "totalAreaSqMi": 20897.14499999999
  },
  {
    "teamId": "tulsa",
    "teamName": "Tulsa",
    "shortName": "Tulsa",
    "latitude": 36.152,
    "longitude": -95.9379,
    "centroidLatitude": 36.152,
    "centroidLongitude": -95.9379,
    "areaSqMi": 0.0,
    "countyCount": 0,
    "logoUrl": "https://a.espncdn.com/combiner/i?img=/i/teamlogos/ncaa/500/202.png",
    "anchorFips": null,
    "region": null,
    "totalAreaSqMi": 0.0
  },
  {
    "teamId": "uab",
    "teamName": "UAB",
    "shortName": "UAB",
    "latitude": 33.5022,
    "longitude": -86.8094,
    "centroidLatitude": 33.5022,
    "centroidLongitude": -86.8094,
    "areaSqMi": 0.0,
    "countyCount": 0,
    "logoUrl": "https://a.espncdn.com/combiner/i?img=/i/teamlogos/ncaa/500/5.png",
    "anchorFips": null,
    "region": null,
    "totalAreaSqMi": 0.0
  },
  {
    "teamId": "ucf",
    "teamName": "UCF",
    "shortName": "UCF",
    "latitude": 33.32727310014991,
    "longitude": -85.1556905429951,
    "centroidLatitude": 31.305769559869045,
    "centroidLongitude": -83.53133410598063,
    "areaSqMi": 17174.589999999997,
    "countyCount": 25,
    "logoUrl": "https://a.espncdn.com/combiner/i?img=/i/teamlogos/ncaa/500/2116.png",
    "anchorFips": "13149",
    "region": "mainland",
    "totalAreaSqMi": 17174.589999999997
  },
  {
    "teamId": "ucla",
    "teamName": "UCLA",
    "shortName": "UCLA",
    "latitude": 34.0689,
    "longitude": -118.4452,
    "centroidLatitude": 34.0689,
    "centroidLongitude": -118.4452,
    "areaSqMi": 0.0,
    "countyCount": 0,
    "logoUrl": "https://a.espncdn.com/combiner/i?img=/i/teamlogos/ncaa/500/26.png",
    "anchorFips": null,
    "region": null,
    "totalAreaSqMi": 0.0
  },
  {
    "teamId": "ulm",
    "teamName": "ULM",
    "shortName": "ULM",
    "latitude": 32.91180328649282,
    "longitude": -91.39020593566198,
    "centroidLatitude": 32.79543548392481,
    "centroidLongitude": -91.50862381274928,
    "areaSqMi": 15624.256999999996,
    "countyCount": 25,
    "logoUrl": "https://a.espncdn.com/combiner/i?img=/i/teamlogos/ncaa/500/2433.png",
    "anchorFips": "22123",
    "region": "mainland",
    "totalAreaSqMi": 15624.256999999996
  },
  {
    "teamId": "umass",
    "teamName": "UMass",
    "shortName": "UMass",
    "latitude": 43.6085168658098,
    "longitude": -73.13148867795593,
    "centroidLatitude": 43.636372617863586,
    "centroidLongitude": -72.90628162134287,
    "areaSqMi": 21659.868000000006,
    "countyCount": 29,
    "logoUrl": "https://a.espncdn.com/combiner/i?img=/i/teamlogos/ncaa/500/113.png",
    "anchorFips": "50021",
    "region": "mainland",
    "totalAreaSqMi": 21659.868000000006
  },
  {
    "teamId": "unlv",
    "teamName": "UNLV",
    "shortName": "UNLV",
    "latitude": 35.83949863245909,
    "longitude": -114.78550250962627,
    "centroidLatitude": 36.36932010177989,
    "centroidLongitude": -115.22760427527503,
    "areaSqMi": 89968.726,
    "countyCount": 9,
    "logoUrl": "https://a.espncdn.com/combiner/i?img=/i/teamlogos/ncaa/500/2439.png",
    "anchorFips": "32003",
    "region": "mainland",
    "totalAreaSqMi": 89968.726
  },
  {
    "teamId": "usc",
    "teamName": "USC",
    "shortName": "USC",
    "latitude": 37.98837314564501,
    "longitude": -93.7626781914349,
    "centroidLatitude": 38.64630280399522,
    "centroidLongitude": -93.71056784829263,
    "areaSqMi": 36545.09300000002,
    "countyCount": 63,
    "logoUrl": "https://a.espncdn.com/combiner/i?img=/i/teamlogos/ncaa/500/30.png",
    "anchorFips": "29185",
    "region": "mainland",
    "totalAreaSqMi": 36545.09300000002
  },
  {
    "teamId": "utep",
    "teamName": "UTEP",
    "shortName": "UTEP",
    "latitude": 31.7619,
    "longitude": -106.5057,
    "centroidLatitude": 31.7619,
    "centroidLongitude": -106.5057,
    "areaSqMi": 0.0,
    "countyCount": 0,
    "logoUrl": "https://a.espncdn.com/combiner/i?img=/i/teamlogos/ncaa/500/2638.png",
    "anchorFips": null,
    "region": null,
    "totalAreaSqMi": 0.0
  },
  {
    "teamId": "utsa",
    "teamName": "UTSA",
    "shortName": "UTSA",
    "latitude": 29.5847,
    "longitude": -98.6205,
    "centroidLatitude": 29.5847,
    "centroidLongitude": -98.6205,
    "areaSqMi": 0.0,
    "countyCount": 0,
    "logoUrl": "https://a.espncdn.com/combiner/i?img=/i/teamlogos/ncaa/500/2636.png",
    "anchorFips": null,
    "region": null,
    "totalAreaSqMi": 0.0
  },
  {
    "teamId": "utah",
    "teamName": "Utah",
    "shortName": "Utah",
    "latitude": 44.45370398256166,
    "longitude": -105.62799455365486,
    "centroidLatitude": 43.92939288244868,
    "centroidLongitude": -105.57075762502645,
    "areaSqMi": 201327.41300000003,
    "countyCount": 89,
    "logoUrl": "https://a.espncdn.com/combiner/i?img=/i/teamlogos/ncaa/500/254.png",
    "anchorFips": "56005",
    "region": "mainland",
    "totalAreaSqMi": 201327.41300000003
  },
  {
    "teamId": "utah-state",
    "teamName": "Utah State",
    "shortName": "Utah State",
    "latitude": 38.13501816500155,
    "longitude": -104.56555917917856,
    "centroidLatitude": 38.17957363517175,
    "centroidLongitude": -104.13506864589301,
    "areaSqMi": 68951.798,
    "countyCount": 47,
    "logoUrl": "https://a.espncdn.com/combiner/i?img=/i/teamlogos/ncaa/500/328.png",
    "anchorFips": "08101",
    "region": "mainland",
    "totalAreaSqMi": 68951.798
  },
  {
    "teamId": "vanderbilt",
    "teamName": "Vanderbilt",
    "shortName": "Vanderbilt",
    "latitude": 34.64840891643781,
    "longitude": -81.54287045565736,
    "centroidLatitude": 35.82615929715657,
    "centroidLongitude": -83.38681132107435,
    "areaSqMi": 34400.941999999995,
    "countyCount": 71,
    "logoUrl": "https://a.espncdn.com/combiner/i?img=/i/teamlogos/ncaa/500/238.png",
    "anchorFips": "45087",
    "region": "mainland",
    "totalAreaSqMi": 34400.941999999995
  },
  {
    "teamId": "virginia",
    "teamName": "Virginia",
    "shortName": "Virginia",
    "latitude": 38.0336,
    "longitude": -78.508,
    "centroidLatitude": 38.0336,
    "centroidLongitude": -78.508,
    "areaSqMi": 0.0,
    "countyCount": 0,
    "logoUrl": "https://a.espncdn.com/combiner/i?img=/i/teamlogos/ncaa/500/258.png",
    "anchorFips": null,
    "region": null,
    "totalAreaSqMi": 0.0
  },
  {
    "teamId": "virginia-tech",
    "teamName": "Virginia Tech",
    "shortName": "Virginia Tech",
    "latitude": 37.2284,
    "longitude": -80.4234,
    "centroidLatitude": 37.2284,
    "centroidLongitude": -80.4234,
    "areaSqMi": 0.0,
    "countyCount": 0,
    "logoUrl": "https://a.espncdn.com/combiner/i?img=/i/teamlogos/ncaa/500/259.png",
    "anchorFips": null,
    "region": null,
    "totalAreaSqMi": 0.0
  },
  {
    "teamId": "wake-forest",
    "teamName": "Wake Forest",
    "shortName": "Wake Forest",
    "latitude": 36.1349,
    "longitude": -80.2742,
    "centroidLatitude": 36.1349,
    "centroidLongitude": -80.2742,
    "areaSqMi": 0.0,
    "countyCount": 0,
    "logoUrl": "https://a.espncdn.com/combiner/i?img=/i/teamlogos/ncaa/500/154.png",
    "anchorFips": null,
    "region": null,
    "totalAreaSqMi": 0.0
  },
  {
    "teamId": "washington",
    "teamName": "Washington",
    "shortName": "Washington",
    "latitude": 63.717503617519746,
    "longitude": -150.6729936191214,
    "centroidLatitude": 63.78875125662854,
    "centroidLongitude": -153.41902351246932,
    "areaSqMi": 570640.951,
    "countyCount": 29,
    "logoUrl": "https://a.espncdn.com/combiner/i?img=/i/teamlogos/ncaa/500/264.png",
    "anchorFips": "02068",
    "region": "alaska",
    "totalAreaSqMi": 639152.0240000003
  },
  {
    "teamId": "washington",
    "teamName": "Washington",
    "shortName": "Washington",
    "latitude": 47.73464830360901,
    "longitude": -119.68201724398835,
    "centroidLatitude": 45.06323024524329,
    "centroidLongitude": -113.06367349685475,
    "areaSqMi": 68511.07299999999,
    "countyCount": 46,
    "logoUrl": "https://a.espncdn.com/combiner/i?img=/i/teamlogos/ncaa/500/264.png",
    "anchorFips": "53017",
    "region": "mainland",
    "totalAreaSqMi": 639152.0240000003
  },
  {
    "teamId": "washington-state",
    "teamName": "Washington State",
    "shortName": "Washington State",
    "latitude": 46.7298,
    "longitude": -117.1817,
    "centroidLatitude": 46.7298,
    "centroidLongitude": -117.1817,
    "areaSqMi": 0.0,
    "countyCount": 0,
    "logoUrl": "https://a.espncdn.com/combiner/i?img=/i/teamlogos/ncaa/500/265.png",
    "anchorFips": null,
    "region": null,
    "totalAreaSqMi": 0.0
  },
  {
    "teamId": "west-virginia",
    "teamName": "West Virginia",
    "shortName": "West Virginia",
    "latitude": 44.020915772175385,
    "longitude": -83.77093740754614,
    "centroidLatitude": 43.86930133810765,
    "centroidLongitude": -83.75466382163827,
    "areaSqMi": 40039.12899999999,
    "countyCount": 63,
    "logoUrl": "https://a.espncdn.com/combiner/i?img=/i/teamlogos/ncaa/500/277.png",
    "anchorFips": "26011",
    "region": "mainland",
    "totalAreaSqMi": 40039.12899999999
  },
  {
    "teamId": "western-kentucky",
    "teamName": "Western Kentucky",
    "shortName": "Western Kentucky",
    "latitude": 36.982,
    "longitude": -86.4472,
    "centroidLatitude": 36.982,
    "centroidLongitude": -86.4472,
    "areaSqMi": 0.0,
    "countyCount": 0,
    "logoUrl": "https://a.espncdn.com/combiner/i?img=/i/teamlogos/ncaa/500/98.png",
    "anchorFips": null,
    "region": null,
    "totalAreaSqMi": 0.0
  },
  {
    "teamId": "western-michigan",
    "teamName": "Western Michigan",
    "shortName": "Western Michigan",
    "latitude": 42.2834,
    "longitude": -85.6051,
    "centroidLatitude": 42.2834,
    "centroidLongitude": -85.6051,
    "areaSqMi": 0.0,
    "countyCount": 0,
    "logoUrl": "https://a.espncdn.com/combiner/i?img=/i/teamlogos/ncaa/500/2711.png",
    "anchorFips": null,
    "region": null,
    "totalAreaSqMi": 0.0
  },
  {
    "teamId": "wisconsin",
    "teamName": "Wisconsin",
    "shortName": "Wisconsin",
    "latitude": 43.0731,
    "longitude": -89.4012,
    "centroidLatitude": 43.0731,
    "centroidLongitude": -89.4012,
    "areaSqMi": 0.0,
    "countyCount": 0,
    "logoUrl": "https://a.espncdn.com/combiner/i?img=/i/teamlogos/ncaa/500/275.png",
    "anchorFips": null,
    "region": null,
    "totalAreaSqMi": 0.0
  },
  {
    "teamId": "wyoming",
    "teamName": "Wyoming",
    "shortName": "Wyoming",
    "latitude": 41.3114,
    "longitude": -105.5911,
    "centroidLatitude": 41.3114,
    "centroidLongitude": -105.5911,
    "areaSqMi": 0.0,
    "countyCount": 0,
    "logoUrl": "https://a.espncdn.com/combiner/i?img=/i/teamlogos/ncaa/500/2751.png",
    "anchorFips": null,
    "region": null,
    "totalAreaSqMi": 0.0
  }
]